City_ID,City,Lat,Lng,Max Temp,Humidity,Cloudiness,Wind Speed,Country,Date
0,quelimane,-17.8786,36.8883,26.97,65,40,3.09,MZ,2023-03-29 15:37:03
1,saskylakh,71.9167,114.0833,-26.57,100,96,2.13,RU,2023-03-29 15:39:07
2,avarua,-21.2078,-159.775,25.03,94,20,4.63,CK,2023-03-29 15:37:03
3,saint anthony,45.0205,-93.218,-6.22,59,0,3.09,US,2023-03-29 15:37:04
4,east london,-33.0153,27.9116,20.52,52,0,7.2,ZA,2023-03-29 15:39:08
5,ushuaia,-54.8,-68.3,3.81,70,75,7.72,AR,2023-03-29 15:39:09
6,hobart,-42.8794,147.3294,14.03,81,100,7.2,AU,2023-03-29 15:34:37
7,port elizabeth,-33.918,25.5701,19.5,61,0,8.75,ZA,2023-03-29 15:39:09
8,marzuq,14.4,46.4667,24.53,62,84,1.59,YE,2023-03-29 15:39:10
9,jamestown,42.097,-79.2353,7.53,56,92,4.92,US,2023-03-29 15:37:00
10,provideniya,64.3833,-173.3,-6.69,94,100,6.98,RU,2023-03-29 15:27:27
11,mogadishu,2.0371,45.3438,28.93,79,20,5.14,SO,2023-03-29 15:38:31
12,dubbo,-32.25,148.6167,14.07,82,1,3.09,AU,2023-03-29 15:29:01
13,khuzhir,53.1939,107.3397,1.07,84,90,2.72,RU,2023-03-29 15:39:11
14,pisco,-13.7,-76.2167,26.03,73,40,3.09,PE,2023-03-29 15:39:12
15,rikitea,-23.1203,-134.9692,26.3,74,97,2.4,PF,2023-03-29 15:39:12
16,bandarbeyla,9.4942,50.8122,27.83,71,98,3.57,SO,2023-03-29 15:39:12
17,arraial do cabo,-22.9661,-42.0278,29.98,65,75,8.23,BR,2023-03-29 15:37:24
18,tebingtinggi,3.3285,99.1625,24.2,94,9,1.63,ID,2023-03-29 15:39:13
19,carndonagh,55.25,-7.2667,15.79,81,99,7.19,IE,2023-03-29 15:39:13
20,oranjemund,-28.55,16.4333,17.44,68,0,11.99,,2023-03-29 15:39:14
21,saint-philippe,-21.3585,55.7679,26.77,80,34,4.2,RE,2023-03-29 15:39:14
22,luganville,-15.5333,167.1667,25.24,84,100,0.94,VU,2023-03-29 15:39:15
23,hithadhoo,-0.6,73.0833,28.39,74,33,2.9,MV,2023-03-29 15:39:15
24,ahipara,-35.1667,173.1667,10.54,76,15,2.03,NZ,2023-03-29 15:39:16
25,pevek,69.7008,170.3133,-22.59,100,61,0.99,RU,2023-03-29 15:39:16
26,ketchikan,55.3422,-131.6461,3.99,75,20,3.6,US,2023-03-29 15:39:16
27,hermanus,-34.4187,19.2345,18.22,69,94,2.54,ZA,2023-03-29 15:39:17
28,conakry,9.538,-13.6773,32.04,55,0,5.14,GN,2023-03-29 15:39:17
29,puerto ayora,-0.7393,-90.3518,29.98,87,56,2.24,EC,2023-03-29 15:39:17
30,kisangani,0.5167,25.2,29.15,54,95,1.69,CD,2023-03-29 15:39:17
31,asau,46.4333,26.4,2.51,57,100,2.43,RO,2023-03-29 15:39:18
32,albany,42.6001,-73.9662,8.9,47,44,0.89,US,2023-03-29 15:34:33
33,saint-augustin,51.226,-58.6502,1.1,72,100,1.32,CA,2023-03-29 15:39:18
34,qaanaaq,77.484,-69.3632,-22.3,71,92,2.48,GL,2023-03-29 15:39:18
35,srednekolymsk,67.45,153.6833,-22.38,99,100,0.62,RU,2023-03-29 15:39:19
36,resistencia,-27.4606,-58.9839,35.05,55,20,6.17,AR,2023-03-29 15:35:11
37,tiksi,71.6872,128.8694,-29.23,99,90,3.16,RU,2023-03-29 15:31:37
38,port-gentil,-0.7193,8.7815,25.98,89,100,7.72,GA,2023-03-29 15:39:19
39,punta arenas,-53.15,-70.9167,5.06,65,40,6.69,CL,2023-03-29 15:38:53
40,lata,40.1629,-8.3327,24.95,40,98,5.67,PT,2023-03-29 15:29:56
41,namatanai,-3.6667,152.4333,25.85,83,99,1.51,PG,2023-03-29 15:39:20
42,bredasdorp,-34.5322,20.0403,17.26,56,86,5.52,ZA,2023-03-29 15:39:21
43,polignano a mare,40.9959,17.2159,16.78,51,100,4.47,IT,2023-03-29 15:39:21
44,oriximina,-1.7656,-55.8661,28.18,78,60,1.29,BR,2023-03-29 15:39:21
45,reconquista,-29.15,-59.65,35.61,36,55,4.42,AR,2023-03-29 15:39:22
46,cabedelo,-6.9811,-34.8339,28.37,70,27,4.92,BR,2023-03-29 15:39:22
47,henties bay,-22.116,14.2845,17.76,78,6,6.04,,2023-03-29 15:39:22
48,karpathos,35.507,27.2132,12.98,47,40,12.86,GR,2023-03-29 15:39:22
49,faya,18.3851,42.4509,21.06,47,12,3.17,SA,2023-03-29 15:30:22
50,pangody,65.85,74.4859,-16.24,97,95,4.28,RU,2023-03-29 15:39:23
51,broome,42.2506,-75.833,8.72,57,0,3.6,US,2023-03-29 15:39:23
52,mount isa,-20.7333,139.5,22.87,83,25,0.0,AU,2023-03-29 15:29:45
53,new norfolk,-42.7826,147.0587,13.84,81,100,1.79,AU,2023-03-29 15:39:24
54,hilo,19.7297,-155.09,22.93,89,100,3.09,US,2023-03-29 15:38:23
55,gazli,40.1333,63.45,23.15,24,29,4.51,UZ,2023-03-29 15:39:24
56,senador guiomard,-10.1522,-67.7392,29.86,62,90,1.76,BR,2023-03-29 15:39:24
57,mandan,46.8267,-100.8896,-8.91,86,0,0.89,US,2023-03-29 15:39:24
58,clyde river,70.4692,-68.5914,-20.87,84,40,0.0,CA,2023-03-29 15:39:25
59,cape town,-33.9258,18.4232,19.51,52,20,8.23,ZA,2023-03-29 15:35:00
60,kirakira,-10.4544,161.9205,26.16,86,100,1.32,SB,2023-03-29 15:39:25
61,mareeba,-17.0,145.4333,21.4,99,74,0.47,AU,2023-03-29 15:39:26
62,bose,45.4612,8.0137,17.91,37,12,1.58,IT,2023-03-29 15:39:26
63,palana,59.1167,159.9667,-7.68,91,99,7.56,RU,2023-03-29 15:39:26
64,marsa matruh,31.3525,27.2453,16.11,48,40,7.2,EG,2023-03-29 15:39:27
65,samarai,-10.6167,150.6667,27.8,75,17,2.39,PG,2023-03-29 15:39:27
66,iqaluit,63.7506,-68.5145,-17.15,77,100,10.29,CA,2023-03-29 15:39:27
67,lasa,46.6166,10.7002,12.42,96,100,1.95,IT,2023-03-29 15:35:02
68,tuktoyaktuk,69.4541,-133.0374,-23.0,84,20,2.57,CA,2023-03-29 15:39:27
69,mahebourg,-20.4081,57.7,27.16,78,75,4.12,MU,2023-03-29 15:39:28
70,oak harbor,48.2932,-122.6432,10.64,78,20,1.54,US,2023-03-29 15:39:28
71,daru,-9.0763,143.2092,25.78,88,80,2.75,PG,2023-03-29 15:39:28
72,altamira,-3.2033,-52.2064,32.05,62,75,2.57,BR,2023-03-29 15:36:13
73,bairiki,1.3292,172.9752,28.0,83,40,2.06,KI,2023-03-29 15:39:29
74,kavaratti,10.5669,72.642,27.74,69,58,3.75,IN,2023-03-29 15:39:29
75,portland,45.5234,-122.6762,7.75,96,100,0.45,US,2023-03-29 15:34:18
76,tasiilaq,65.6145,-37.6368,-6.91,63,28,1.14,GL,2023-03-29 15:39:29
77,oktyabrskiy,54.4815,53.471,2.63,88,64,4.14,RU,2023-03-29 15:31:56
78,kaitangata,-46.2817,169.8464,5.31,79,35,2.61,NZ,2023-03-29 15:39:30
79,busselton,-33.65,115.3333,18.1,55,75,7.17,AU,2023-03-29 15:39:31
80,aklavik,68.2191,-135.0107,-19.82,93,7,3.05,CA,2023-03-29 15:39:31
81,vaini,-21.2,-175.2,23.09,100,20,1.54,TO,2023-03-29 15:39:31
82,susanville,40.4163,-120.653,-1.77,88,100,0.45,US,2023-03-29 15:39:31
83,avera,33.194,-82.5271,14.95,40,99,5.35,US,2023-03-29 15:39:32
84,cockburn town,21.4612,-71.1419,25.05,74,86,6.63,TC,2023-03-29 15:37:28
85,bethel,41.3712,-73.414,10.66,39,0,2.06,US,2023-03-29 15:39:33
86,bo phloi,14.3236,99.5161,27.55,66,68,1.53,TH,2023-03-29 15:39:33
87,victor harbor,-35.5667,138.6167,13.16,69,96,2.67,AU,2023-03-29 15:39:33
88,korla,41.7597,86.1469,14.62,16,12,3.25,CN,2023-03-29 15:39:33
89,hovd,48.0056,91.6419,4.41,32,82,1.11,MN,2023-03-29 15:39:34
90,dikson,73.5069,80.5464,-19.34,97,100,2.87,RU,2023-03-29 15:39:34
91,bluff,-46.6,168.3333,5.45,72,74,6.75,NZ,2023-03-29 15:39:34
92,airai,-8.9266,125.4092,14.75,90,100,0.83,TL,2023-03-29 15:39:35
93,cervo,43.6702,-7.4101,19.88,55,52,6.42,ES,2023-03-29 15:39:35
94,lompoc,34.6391,-120.4579,10.47,87,75,2.57,US,2023-03-29 15:39:35
95,hasaki,35.7333,140.8333,12.34,77,100,3.96,JP,2023-03-29 15:37:27
96,acarau,-2.8856,-40.12,28.76,70,48,4.89,BR,2023-03-29 15:36:09
97,hun,29.1268,15.9477,23.4,23,0,5.47,LY,2023-03-29 15:39:36
98,ponta do sol,32.6667,-17.1,24.35,46,31,1.23,PT,2023-03-29 15:39:37
99,mount gambier,-37.8333,140.7667,10.68,89,15,2.17,AU,2023-03-29 15:31:42
100,cherskiy,68.75,161.3,-28.08,100,76,1.85,RU,2023-03-29 15:39:37
101,ugoofaaru,5.6667,73.0,28.52,71,55,3.49,MV,2023-03-29 15:39:38
102,litovko,49.2361,135.1742,2.62,75,98,3.25,RU,2023-03-29 15:39:38
103,barrow,71.2906,-156.7887,-11.99,72,100,4.63,US,2023-03-29 15:39:39
104,mataura,-46.1927,168.8643,5.27,82,36,1.72,NZ,2023-03-29 15:35:13
105,nyaunglebin,17.95,96.7333,25.57,58,34,3.36,MM,2023-03-29 15:39:39
106,changji,44.0167,87.3167,13.44,38,0,1.0,CN,2023-03-29 15:39:40
107,pimentel,-6.8367,-79.9342,29.16,70,40,1.03,PE,2023-03-29 15:39:40
108,dinga,32.6398,73.722,21.77,41,95,1.32,PK,2023-03-29 15:39:40
109,kragero,58.8693,9.4149,0.81,74,98,6.03,NO,2023-03-29 15:39:40
110,khatanga,71.9667,102.5,-29.75,100,99,0.61,RU,2023-03-29 15:39:09
111,umm kaddadah,13.6017,26.6876,31.02,8,79,5.67,SD,2023-03-29 15:39:41
112,khani,41.9563,42.9566,3.76,96,99,1.71,GE,2023-03-29 15:39:41
113,yellowknife,62.456,-114.3525,-14.69,78,75,2.06,CA,2023-03-29 15:34:50
114,san vicente,-26.6167,-54.1333,32.05,39,12,2.38,AR,2023-03-29 15:39:41
115,halmstad,56.6745,12.8568,6.68,93,100,6.17,SE,2023-03-29 15:39:42
116,rodrigues alves,-7.738,-72.6509,28.11,72,99,1.73,BR,2023-03-29 15:39:42
117,ribeira grande,38.5167,-28.7,17.22,77,40,10.73,PT,2023-03-29 15:39:42
118,paamiut,61.994,-49.6678,-7.25,52,25,1.38,GL,2023-03-29 15:31:34
119,kapaa,22.0752,-159.319,23.99,92,100,5.66,US,2023-03-29 15:39:43
120,cascais,38.6979,-9.4215,21.92,65,0,8.05,PT,2023-03-29 15:39:43
121,zhanakorgan,43.9098,67.2495,17.85,64,100,5.28,KZ,2023-03-29 15:39:43
122,kavieng,-2.5744,150.7967,27.29,74,100,0.65,PG,2023-03-29 15:39:43
123,manoel urbano,-8.8389,-69.2597,30.65,58,97,2.3,BR,2023-03-29 15:39:44
124,valparaiso,-33.0393,-71.6273,26.13,53,0,3.6,CL,2023-03-29 15:29:16
125,lloro,5.4961,-76.5495,24.97,71,100,0.21,CO,2023-03-29 15:39:44
126,hambantota,6.1241,81.1185,28.19,89,75,1.03,LK,2023-03-29 15:39:45
127,benjamin constant,-4.3831,-70.0311,29.07,88,75,3.6,BR,2023-03-29 15:39:45
128,dalvik,65.9702,-18.5286,1.96,83,100,3.68,IS,2023-03-29 15:39:45
129,chuy,-33.6971,-53.4616,28.6,41,0,3.88,UY,2023-03-29 15:39:46
130,padang,-0.9492,100.3543,28.03,87,100,1.22,ID,2023-03-29 15:39:46
131,itarema,-2.9248,-39.9167,29.1,68,46,4.76,BR,2023-03-29 15:35:41
132,chokurdakh,70.6333,147.9167,-32.92,100,59,2.75,RU,2023-03-29 15:39:46
133,thompson,55.7435,-97.8558,-15.91,72,20,1.54,CA,2023-03-29 15:29:51
134,hofn,64.2539,-15.2082,4.01,75,100,10.29,IS,2023-03-29 15:39:47
135,lebu,-37.6167,-73.65,14.29,58,14,6.4,CL,2023-03-29 15:39:47
136,parrita,9.5201,-84.3225,30.7,55,10,2.32,CR,2023-03-29 15:39:47
137,kodinar,20.7903,70.7031,24.09,77,0,5.07,IN,2023-03-29 15:39:47
138,talnakh,69.4865,88.3972,-27.91,99,61,3.05,RU,2023-03-29 15:39:48
139,leningradskiy,69.3833,178.4167,-9.91,83,100,2.4,RU,2023-03-29 15:39:48
140,muzhi,65.3667,64.6667,-13.88,78,3,6.34,RU,2023-03-29 15:39:48
141,cayenne,4.9333,-52.3333,29.02,70,75,6.69,GF,2023-03-29 15:39:48
142,banjar,-8.19,114.9675,25.6,85,98,0.45,ID,2023-03-29 15:39:48
143,klaksvik,62.2266,-6.589,4.51,82,100,16.8,FO,2023-03-29 15:28:09
144,kovdor,67.5662,30.4758,-4.29,95,100,4.75,RU,2023-03-29 15:39:49
145,santa maria da boa vista,-8.8078,-39.8256,31.85,39,33,3.85,BR,2023-03-29 15:39:50
146,carnarvon,-24.8667,113.6333,24.45,76,100,3.73,AU,2023-03-29 15:39:50
147,vostok,46.4856,135.8833,-1.25,79,52,2.93,RU,2023-03-29 15:39:50
148,mar del plata,-38.0023,-57.5575,20.53,61,75,6.17,AR,2023-03-29 15:35:24
149,yumen,40.2833,97.2,10.23,16,86,2.43,CN,2023-03-29 15:39:50
150,miri,4.4148,114.0089,26.08,94,20,1.03,MY,2023-03-29 15:39:17
151,koslan,63.4564,48.8989,-4.02,91,100,3.13,RU,2023-03-29 15:39:51
152,murdochville,48.9583,-65.5006,-3.51,85,86,0.53,CA,2023-03-29 15:39:51
153,te anau,-45.4167,167.7167,1.28,95,34,0.57,NZ,2023-03-29 15:39:51
154,marsabit,2.3284,37.9899,24.18,50,73,5.22,KE,2023-03-29 15:39:51
155,port alfred,-33.5906,26.891,18.43,64,84,3.13,ZA,2023-03-29 15:39:52
156,dhar,22.6,75.3,27.7,23,3,2.99,IN,2023-03-29 15:39:52
157,navirai,-23.065,-54.1906,29.22,65,4,3.04,BR,2023-03-29 15:39:53
158,ozinki,51.1786,49.6769,11.61,68,91,6.98,RU,2023-03-29 15:39:53
159,urumqi,43.801,87.6005,11.53,38,0,1.0,CN,2023-03-29 15:39:53
160,mochudi,-24.4167,26.15,28.33,35,21,2.55,BW,2023-03-29 15:39:54
161,inirida,3.8653,-67.9239,29.65,65,100,1.57,CO,2023-03-29 15:39:54
162,quang ngai,15.1167,108.8,23.07,94,93,0.22,VN,2023-03-29 15:39:54
163,rio grande,-32.035,-52.0986,35.06,47,0,2.17,BR,2023-03-29 15:39:55
164,kosa,59.9445,54.9977,-5.61,90,22,1.5,RU,2023-03-29 15:39:55
165,nikolskoye,59.7035,30.7861,-2.06,95,100,4.13,RU,2023-03-29 15:39:55
166,lumphat,13.4878,106.9816,24.41,85,52,1.27,KH,2023-03-29 15:39:56
167,kyra,49.5776,111.9753,-0.21,85,18,1.92,RU,2023-03-29 15:39:56
168,aksarka,66.5606,67.7975,-20.03,90,52,2.82,RU,2023-03-29 15:39:56
169,nouadhibou,20.931,-17.0347,22.99,68,0,7.72,MR,2023-03-29 15:31:49
170,ulaanbaatar,47.9077,106.8832,-2.93,68,0,2.0,MN,2023-03-29 15:39:57
171,san patricio,28.017,-97.5169,18.25,51,98,4.66,US,2023-03-29 15:39:57
172,richards bay,-28.783,32.0377,21.31,86,99,5.39,ZA,2023-03-29 15:39:58
173,naze,28.3667,129.4833,17.51,81,100,5.61,JP,2023-03-29 15:39:59
174,sompeta,18.9333,84.6,26.75,80,19,6.07,IN,2023-03-29 15:39:59
175,ostrovnoy,68.0531,39.5131,-3.98,78,100,10.33,RU,2023-03-29 15:39:59
176,atuona,-9.8,-139.0333,27.08,76,65,6.17,PF,2023-03-29 15:39:59
177,taraz,42.9,71.3667,12.23,82,100,4.0,KZ,2023-03-29 15:40:00
178,georgetown,5.4112,100.3354,26.96,89,20,1.54,MY,2023-03-29 15:39:32
179,kloulklubed,7.0419,134.2556,23.28,77,70,1.35,PW,2023-03-29 15:40:00
180,madera,37.1666,-119.8343,8.47,80,46,2.83,US,2023-03-29 15:35:25
181,bengkulu,-3.8004,102.2655,24.85,88,97,2.24,ID,2023-03-29 15:40:01
182,masallatah,32.6167,14.0,16.37,62,1,8.14,LY,2023-03-29 15:40:02
183,monterey,36.2505,-121.2516,6.21,1,6,1.71,US,2023-03-29 15:37:36
184,grindavik,63.8424,-22.4338,6.26,75,75,9.77,IS,2023-03-29 15:40:03
185,semnan,35.5729,53.3971,17.99,40,1,1.08,IR,2023-03-29 15:40:06
186,makakilo city,21.3469,-158.0858,24.2,81,100,6.17,US,2023-03-29 15:29:38
187,torbay,47.6666,-52.7314,2.38,87,100,7.2,CA,2023-03-29 15:40:07
188,jumla,29.2747,82.1838,8.51,73,99,0.92,NP,2023-03-29 15:40:07
189,mayya,61.7333,130.2811,-9.38,94,100,1.96,RU,2023-03-29 15:40:07
190,caravelas,-17.7125,-39.2481,29.91,47,2,3.84,BR,2023-03-29 15:40:07
191,mangan,27.5167,88.5333,16.46,62,47,2.3,IN,2023-03-29 15:40:08
192,victoria,22.2855,114.1577,22.03,85,97,2.68,HK,2023-03-29 15:40:08
193,rio gallegos,-51.6226,-69.2181,6.03,52,75,8.75,AR,2023-03-29 15:37:09
194,kruisfontein,-34.0033,24.7314,18.27,68,98,7.35,ZA,2023-03-29 15:40:08
195,cabo san lucas,22.8909,-109.9124,23.06,58,100,1.54,MX,2023-03-29 15:38:55
196,otradnoye,59.7775,30.8181,-1.97,96,100,4.04,RU,2023-03-29 15:36:55
197,cap malheureux,-19.9842,57.6142,26.37,73,78,2.24,MU,2023-03-29 15:40:09
198,oum hadjer,13.2954,19.6966,38.51,10,49,3.61,TD,2023-03-29 15:40:10
199,warrnambool,-38.3833,142.4833,14.29,72,98,4.82,AU,2023-03-29 15:40:10
200,sorland,67.667,12.6934,-1.08,54,4,0.63,NO,2023-03-29 15:40:11
201,karratha,-20.7377,116.8463,28.1,76,100,5.31,AU,2023-03-29 15:40:11
202,isiro,2.7739,27.616,24.1,72,100,2.23,CD,2023-03-29 15:40:12
203,bathsheba,13.2167,-59.5167,29.34,54,20,10.8,BB,2023-03-29 15:40:12
204,nyborg,55.3127,10.7896,5.12,93,100,4.23,DK,2023-03-29 15:40:12
205,jambi,-1.6,103.6167,23.1,96,98,0.65,ID,2023-03-29 15:31:56
206,laguna,38.421,-121.4238,8.36,88,100,6.17,US,2023-03-29 15:40:13
207,muisne,0.6,-80.0333,28.39,68,71,2.76,EC,2023-03-29 15:40:13
208,alta gracia,-31.6529,-64.4283,21.87,75,35,7.25,AR,2023-03-29 15:40:14
209,miranda,3.2499,-76.2281,20.07,80,99,1.64,CO,2023-03-29 15:40:14
210,bumba,2.1833,22.4667,30.33,55,47,2.34,CD,2023-03-29 15:40:15
211,itoman,26.1247,127.6694,19.21,88,100,5.66,JP,2023-03-29 15:40:16
212,bucerias,20.75,-105.3333,19.99,64,0,1.03,MX,2023-03-29 15:40:16
213,muros,42.7762,-9.0603,19.27,85,55,8.06,ES,2023-03-29 15:40:16
214,saint george,37.1041,-113.5841,12.92,34,0,7.72,US,2023-03-29 15:39:43
215,garowe,8.4054,48.4845,31.36,35,14,6.73,SO,2023-03-29 15:40:17
216,mehamn,71.0357,27.8492,-2.03,64,75,4.63,NO,2023-03-29 15:40:18
217,tazovskiy,67.4667,78.7,-17.59,98,93,3.95,RU,2023-03-29 15:40:18
218,ballia,25.7557,84.1503,28.05,19,76,3.12,IN,2023-03-29 15:40:19
219,olafsvik,64.8945,-23.7142,0.43,93,100,7.99,IS,2023-03-29 15:40:19
220,bulawayo,-20.15,28.5833,19.05,75,97,2.25,ZW,2023-03-29 15:40:20
221,luderitz,-26.6481,15.1594,20.31,58,0,14.26,,2023-03-29 15:40:20
222,laredo,27.5064,-99.5075,16.16,44,100,5.14,US,2023-03-29 15:40:21
223,amapa,1.0,-52.0,30.15,59,75,2.25,BR,2023-03-29 15:40:21
224,portsmouth,50.799,-1.0913,13.56,88,100,7.33,GB,2023-03-29 15:35:34
225,abu kamal,34.4506,40.9171,22.86,27,0,10.04,SY,2023-03-29 15:40:22
226,noumea,-22.2763,166.4572,20.99,87,98,3.85,NC,2023-03-29 15:37:39
227,pingxiang,27.6167,113.85,12.27,98,100,0.54,CN,2023-03-29 15:40:23
228,nassau,40.7507,-73.5829,10.74,39,0,3.09,US,2023-03-29 15:40:24
229,aberdeen,57.1437,-2.0981,10.92,93,100,6.69,GB,2023-03-29 15:40:24
230,vestmannaeyjar,63.4427,-20.2734,5.55,87,75,19.55,IS,2023-03-29 15:40:25
231,mackay,-21.15,149.2,23.16,81,3,2.46,AU,2023-03-29 15:40:25
232,show low,34.2542,-110.0298,11.67,26,0,9.26,US,2023-03-29 15:36:25
233,beloha,-25.1667,45.05,21.57,70,0,6.07,MG,2023-03-29 15:40:26
234,opelousas,30.5335,-92.0815,14.37,62,100,4.59,US,2023-03-29 15:39:35
235,sistranda,63.7256,8.834,1.98,63,6,6.99,NO,2023-03-29 15:40:26
236,tamiahua,21.2667,-97.45,20.23,84,100,5.16,MX,2023-03-29 15:40:27
237,atbasar,51.8,68.3333,0.99,97,100,7.31,KZ,2023-03-29 15:40:27
238,deputatskiy,69.3,139.9,-30.26,97,57,1.23,RU,2023-03-29 15:40:27
239,bell ville,-32.6259,-62.6887,23.78,73,67,5.59,AR,2023-03-29 15:40:28
240,yanam,16.7333,82.2167,25.84,81,50,2.42,IN,2023-03-29 15:40:28
241,tarakan,3.3,117.6333,26.57,83,100,3.07,ID,2023-03-29 15:40:29
242,alofi,-19.0595,-169.9187,25.94,89,100,3.09,NU,2023-03-29 15:40:29
243,perevolotskiy,51.8763,54.1938,6.09,81,31,9.27,RU,2023-03-29 15:40:30
244,guarapari,-20.6667,-40.4975,28.02,63,86,3.57,BR,2023-03-29 15:40:30
245,kodiak,57.79,-152.4072,0.73,86,100,2.06,US,2023-03-29 15:40:30
246,camopi,3.1655,-52.3158,27.79,79,87,1.82,GF,2023-03-29 15:40:31
247,haines junction,60.7522,-137.5108,-16.03,85,100,0.51,CA,2023-03-29 15:31:57
248,margate,51.3813,1.3862,14.93,73,100,0.89,GB,2023-03-29 15:40:32
249,vila velha,-20.3297,-40.2925,29.97,66,75,4.12,BR,2023-03-29 15:40:32
250,umm lajj,25.0213,37.2685,24.41,62,98,3.11,SA,2023-03-29 15:40:33
251,upernavik,72.7868,-56.1549,-23.53,77,14,2.85,GL,2023-03-29 15:35:11
252,kupang,-10.1667,123.5833,25.58,84,100,2.92,ID,2023-03-29 15:40:33
253,sao filipe,14.8961,-24.4956,26.33,57,68,2.57,CV,2023-03-29 15:40:33
254,maldonado,-34.6667,-54.9167,29.66,41,0,5.17,UY,2023-03-29 15:40:34
255,kahului,20.8947,-156.47,24.91,80,0,5.36,US,2023-03-29 15:30:58
256,orsha,54.5153,30.4053,-1.68,95,100,9.04,BY,2023-03-29 15:40:34
257,ryotsu,38.0833,138.4333,7.13,59,0,1.21,JP,2023-03-29 15:40:34
258,maniago,46.1706,12.7078,15.08,47,20,3.09,IT,2023-03-29 15:40:35
259,norman wells,65.282,-126.8329,-10.98,79,75,6.69,CA,2023-03-29 15:40:35
260,salalah,17.0151,54.0924,29.05,84,75,3.6,OM,2023-03-29 15:40:35
261,shimoda,34.6667,138.95,11.17,77,100,3.45,JP,2023-03-29 15:40:36
262,chengannur,9.3333,76.6333,25.61,90,61,0.99,IN,2023-03-29 15:40:36
263,faanui,-16.4833,-151.75,27.75,75,84,4.48,PF,2023-03-29 15:40:36
264,namibe,-15.1961,12.1522,25.45,73,65,5.44,AO,2023-03-29 15:40:37
265,fortuna,40.5982,-124.1573,7.21,87,100,2.68,US,2023-03-29 15:40:37
266,isangel,-19.55,169.2667,25.14,87,54,3.0,VU,2023-03-29 15:40:37
267,jhelum,32.9331,73.7264,23.01,36,99,2.29,PK,2023-03-29 15:40:37
268,hargeysa,9.56,44.065,23.5,62,91,1.54,SO,2023-03-29 15:40:38
269,severo-kurilsk,50.6789,156.125,-2.04,58,0,3.04,RU,2023-03-29 15:40:39
270,vardo,70.3705,31.1107,-0.01,69,75,9.26,NO,2023-03-29 15:40:39
271,butaritari,3.0707,172.7902,26.98,83,85,6.19,KI,2023-03-29 15:40:40
272,port augusta,-32.5,137.7667,15.78,77,0,3.13,AU,2023-03-29 15:40:40
273,mormugao,15.4,73.8,25.36,71,16,4.67,IN,2023-03-29 15:40:40
274,russell,32.3502,-85.1999,15.54,47,0,3.09,US,2023-03-29 15:40:41
275,ucluelet,48.9329,-125.5528,4.17,58,5,1.1,CA,2023-03-29 15:40:41
276,goundam,16.4145,-3.6708,39.17,7,22,4.59,ML,2023-03-29 15:40:41
277,esperance,-33.8667,121.9,16.02,82,25,4.85,AU,2023-03-29 15:40:42
278,mecca,21.4267,39.8261,28.36,39,2,4.07,SA,2023-03-29 15:40:42
279,monkey bay,-14.0728,34.9201,25.59,74,17,4.21,MW,2023-03-29 15:40:42
280,evensk,61.95,159.2333,-19.05,92,83,3.01,RU,2023-03-29 15:40:43
281,bilma,18.6853,12.9164,33.47,5,2,3.3,NE,2023-03-29 15:40:43
282,rocha,-34.4833,-54.3333,29.02,37,0,5.05,UY,2023-03-29 15:36:07
283,havre-saint-pierre,50.2334,-63.5986,2.2,75,75,2.06,CA,2023-03-29 15:40:44
284,port hardy,50.6996,-127.4199,5.0,100,75,1.03,CA,2023-03-29 15:40:44
285,prince rupert,54.3161,-130.3201,5.83,93,0,2.57,CA,2023-03-29 15:31:14
286,turukhansk,65.8167,87.9833,-18.83,89,100,6.41,RU,2023-03-29 15:40:44
287,castro,-24.7911,-50.0119,26.39,56,72,2.47,BR,2023-03-29 15:37:28
288,marrakesh,31.6315,-8.0083,36.04,11,20,3.6,MA,2023-03-29 15:40:45
289,longyearbyen,78.2186,15.6401,-12.09,79,40,2.57,SJ,2023-03-29 15:36:54
290,nicolas bravo,18.45,-88.9167,30.04,43,7,2.97,MX,2023-03-29 15:40:45
291,kolobrzeg,54.1757,15.5834,8.31,45,88,4.24,PL,2023-03-29 15:40:45
292,geraldton,-28.7667,114.6,23.23,78,40,8.75,AU,2023-03-29 15:40:46
293,ambilobe,-13.2,49.05,24.97,89,60,0.63,MG,2023-03-29 15:40:46
294,volzhskiy,48.7858,44.7797,13.73,51,100,4.85,RU,2023-03-29 15:40:46
295,necochea,-38.5473,-58.7368,17.4,44,4,8.78,AR,2023-03-29 15:40:46
296,port macquarie,-31.4333,152.9167,19.38,76,98,2.24,AU,2023-03-29 15:40:47
297,houston,29.7633,-95.3633,19.05,58,100,6.69,US,2023-03-29 15:40:30
298,batagay,67.6333,134.6333,-27.22,100,87,1.43,RU,2023-03-29 15:40:47
299,trairi,-3.2778,-39.2689,29.11,67,61,4.49,BR,2023-03-29 15:36:39
300,codrington,-38.2667,141.9667,13.11,80,93,3.77,AU,2023-03-29 15:40:48
301,plettenberg bay,-34.0527,23.3716,16.07,73,98,4.72,ZA,2023-03-29 15:40:48
302,khoy,38.5504,44.9535,15.24,35,0,6.89,IR,2023-03-29 15:40:48
303,varde,55.6211,8.4807,7.76,98,100,3.6,DK,2023-03-29 15:40:49
304,tashtyp,52.7939,89.8983,3.54,91,0,2.43,RU,2023-03-29 15:40:49
305,nisia floresta,-6.0911,-35.2086,30.45,60,57,4.79,BR,2023-03-29 15:40:49
306,hami,42.8,93.45,16.88,9,0,3.68,CN,2023-03-29 15:40:50
307,fairbanks,64.8378,-147.7164,-9.67,79,0,4.12,US,2023-03-29 15:37:25
308,saldanha,-33.0117,17.9442,20.03,72,93,8.88,ZA,2023-03-29 15:40:50
309,lagoa,39.05,-27.9833,15.12,78,89,12.66,PT,2023-03-29 15:40:51
310,sitka,57.0531,-135.33,2.94,65,0,2.06,US,2023-03-29 15:40:51
311,phan thiet,10.9333,108.1,24.64,88,96,4.07,VN,2023-03-29 15:40:51
312,elk plain,47.0532,-122.3976,9.09,78,75,1.54,US,2023-03-29 15:40:52
313,ballina,-28.8667,153.5667,20.43,89,73,3.23,AU,2023-03-29 15:40:52
314,tingi,-11.3,35.0333,18.46,96,100,0.74,TZ,2023-03-29 15:40:52
315,guangyuan,32.442,105.823,14.79,77,94,1.32,CN,2023-03-29 15:40:52
316,puerto ayacucho,5.6639,-67.6236,34.74,36,88,1.3,VE,2023-03-29 15:37:54
317,gavle,60.6745,17.1417,-0.05,65,67,2.37,SE,2023-03-29 15:40:53
318,narsaq,60.9167,-46.05,1.12,54,10,0.79,GL,2023-03-29 15:40:53
319,beringovskiy,63.05,179.3167,-4.74,97,100,4.55,RU,2023-03-29 15:31:10
320,palmira,3.5394,-76.3036,20.71,94,75,1.54,CO,2023-03-29 15:40:54
321,huaihua,27.5494,109.9592,12.07,90,98,1.26,CN,2023-03-29 15:40:54
322,quatre cocos,-20.2078,57.7625,27.06,73,83,6.91,MU,2023-03-29 15:40:54
323,lovington,32.944,-103.3485,12.4,30,1,3.58,US,2023-03-29 15:40:54
324,turek,52.0155,18.5005,9.23,54,52,2.62,PL,2023-03-29 15:40:55
325,yerbogachen,61.2767,108.0108,1.25,98,100,6.45,RU,2023-03-29 15:40:55
326,bowen,-20.0167,148.2333,25.2,83,68,1.41,AU,2023-03-29 15:40:55
327,waddan,29.1614,16.139,22.98,25,0,5.71,LY,2023-03-29 15:40:56
328,suoyarvi,62.0833,32.35,-0.51,98,100,3.08,RU,2023-03-29 15:40:56
329,san cristobal,7.7669,-72.225,22.1,66,100,2.77,VE,2023-03-29 15:40:56
330,katsuura,35.1333,140.3,12.55,81,100,2.0,JP,2023-03-29 15:40:57
331,muyezerskiy,63.9333,31.65,-1.68,97,100,2.55,RU,2023-03-29 15:40:57
332,zapolyarnyy,69.4154,30.8136,-4.4,94,100,12.54,RU,2023-03-29 15:40:57
333,hanmer springs,-42.5167,172.8167,4.12,92,100,0.56,NZ,2023-03-29 15:40:57
334,manali,13.1667,80.2667,29.05,82,2,6.8,IN,2023-03-29 15:40:58
335,bereda,43.2686,-7.5406,22.86,27,50,5.27,ES,2023-03-29 15:40:58
336,flagstaff,35.1981,-111.6513,8.11,32,0,6.17,US,2023-03-29 15:40:58
337,macara,-4.3833,-79.95,27.6,73,99,1.79,EC,2023-03-29 15:40:58
338,sao miguel do araguaia,-13.275,-50.1628,30.24,59,85,2.86,BR,2023-03-29 15:39:24
339,belmonte,-15.8631,-38.8828,27.43,70,68,3.68,BR,2023-03-29 15:40:59
340,phalaborwa,-23.943,31.1411,32.6,29,13,3.25,ZA,2023-03-29 15:40:59
341,ishigaki,24.3448,124.1572,22.07,94,75,4.12,JP,2023-03-29 15:40:59
342,cartagena del chaira,1.3349,-74.8429,32.09,53,88,0.59,CO,2023-03-29 15:41:00
343,touros,-5.1989,-35.4608,30.21,61,41,5.22,BR,2023-03-29 15:41:00
344,tubuala,9.5167,-79.0333,26.94,75,34,6.54,PA,2023-03-29 15:41:00
345,sterling,39.0062,-77.4286,13.41,50,20,3.6,US,2023-03-29 15:40:10
346,kefamenanu,-9.4467,124.4781,21.46,95,100,1.17,ID,2023-03-29 15:41:01
347,gobabis,-22.45,18.9667,29.52,16,0,3.57,,2023-03-29 15:41:01
348,hualmay,-11.0964,-77.6139,27.05,66,46,4.17,PE,2023-03-29 15:41:01
349,nanortalik,60.1432,-45.2371,-2.42,84,62,2.49,GL,2023-03-29 15:41:02
350,melioratorov,57.2107,65.6077,-1.79,50,0,1.0,RU,2023-03-29 15:41:02
351,shingu,33.7333,135.9833,9.12,69,91,2.55,JP,2023-03-29 15:41:02
352,verkhnyaya toyma,62.2349,44.9985,-0.66,82,98,4.81,RU,2023-03-29 15:41:03
353,arman,59.7,150.1667,-12.58,95,96,2.96,RU,2023-03-29 15:31:49
354,madimba,-10.4,40.3333,26.62,94,75,5.14,TZ,2023-03-29 15:41:03
355,vologda,59.2187,39.8886,3.78,83,100,7.4,RU,2023-03-29 15:41:04
356,lewiston,44.1003,-70.2148,6.9,46,0,4.63,US,2023-03-29 15:31:18
357,coihueco,-36.6167,-71.8333,16.41,48,0,6.69,CL,2023-03-29 15:41:04
358,sabha,27.0377,14.4283,26.76,17,0,6.8,LY,2023-03-29 15:41:05
359,manacor,39.5696,3.2096,20.28,58,5,3.89,ES,2023-03-29 15:41:05
360,zorritos,-3.6805,-80.6782,29.16,74,99,3.15,PE,2023-03-29 15:41:05
361,la ronge,55.1001,-105.2842,-11.86,52,75,0.0,CA,2023-03-29 15:41:06
362,manado,1.487,124.8455,25.43,94,40,1.03,ID,2023-03-29 15:41:06
363,komsomolskiy,40.4272,71.7189,19.4,37,100,3.09,UZ,2023-03-29 15:41:06
364,moerai,-22.4333,-151.3333,26.45,75,100,4.25,PF,2023-03-29 15:41:07
365,yulara,-25.2406,130.9889,21.72,40,80,6.7,AU,2023-03-29 15:41:07
366,malakal,9.5334,31.6605,35.45,11,18,1.28,SS,2023-03-29 15:41:08
367,vidim,56.4088,103.1106,2.48,96,100,3.38,RU,2023-03-29 15:41:08
368,shelburne,44.0787,-80.2041,5.5,74,87,9.27,CA,2023-03-29 15:41:08
369,coihaique,-45.5752,-72.0662,6.97,70,75,1.54,CL,2023-03-29 15:37:11
370,sao jose da coroa grande,-8.8978,-35.1478,28.17,71,70,5.18,BR,2023-03-29 15:41:09
371,romitan,39.9343,64.3814,21.97,40,0,1.03,UZ,2023-03-29 15:41:09
372,puksoozero,62.5903,40.6066,0.69,88,100,4.96,RU,2023-03-29 15:41:09
373,vengerovo,55.6848,76.7471,-3.88,77,71,6.53,RU,2023-03-29 15:41:10
374,giyani,-23.3025,30.7187,27.04,37,13,2.66,ZA,2023-03-29 15:41:10
375,yamethin,20.4333,96.15,29.08,32,70,0.32,MM,2023-03-29 15:41:11
376,port blair,11.6667,92.75,29.02,74,40,1.03,IN,2023-03-29 15:41:11
377,ola,59.5833,151.2833,-14.8,97,93,2.41,RU,2023-03-29 15:41:11
378,zaranj,30.9667,61.8833,23.98,42,7,4.81,AF,2023-03-29 15:41:12
379,tahta,26.7693,31.5021,25.96,21,0,8.86,EG,2023-03-29 15:41:12
380,kerman,30.2832,57.0788,17.92,25,20,4.12,IR,2023-03-29 15:36:16
381,borogontsy,62.6683,131.1683,-14.34,96,100,2.25,RU,2023-03-29 15:41:13
382,sioux lookout,50.1001,-91.917,-11.96,56,20,3.6,CA,2023-03-29 15:41:13
383,astana,51.1801,71.446,8.97,66,0,6.0,KZ,2023-03-29 15:41:13
384,carroll,39.5501,-77.0164,12.16,46,0,3.09,US,2023-03-29 15:41:14
385,kulhudhuffushi,6.6221,73.07,28.87,72,99,4.3,MV,2023-03-29 15:41:14
386,kemin,42.7846,75.6892,12.47,46,87,0.97,KG,2023-03-29 15:41:15
387,jimani,18.4917,-71.8502,28.94,27,0,4.02,DO,2023-03-29 15:41:15
388,kiunga,-6.1219,141.2906,22.64,100,100,0.93,PG,2023-03-29 15:41:15
389,kutum,14.2,24.6667,30.06,14,73,3.98,SD,2023-03-29 15:41:16
390,port lincoln,-34.7333,135.8667,15.29,78,27,1.69,AU,2023-03-29 15:41:16
391,asfi,32.2994,-9.2372,21.48,58,25,8.86,MA,2023-03-29 15:41:16
392,bonthe,7.5264,-12.505,29.68,66,72,5.97,SL,2023-03-29 15:41:16
393,karatuzskoye,53.6072,92.8667,1.93,99,81,1.87,RU,2023-03-29 15:41:17
394,uusikaupunki,60.8004,21.4084,-3.53,73,68,2.83,FI,2023-03-29 15:41:17
395,luis correia,-2.8792,-41.6669,28.52,73,30,4.09,BR,2023-03-29 15:41:18
396,mountain home,43.133,-115.6912,3.01,98,100,1.54,US,2023-03-29 15:37:28
397,maceio,-9.6658,-35.7353,29.69,74,75,6.17,BR,2023-03-29 15:37:07
398,union,40.6334,-74.2663,11.61,35,0,3.6,US,2023-03-29 15:41:19
399,gizo,-8.103,156.8419,27.05,81,100,2.21,SB,2023-03-29 15:41:19
400,kopong,-24.4833,25.8833,28.13,44,20,3.09,BW,2023-03-29 15:41:19
401,mocuba,-16.8392,36.9856,22.3,91,30,1.85,MZ,2023-03-29 15:41:20
402,vizinga,61.0749,50.1031,-4.72,92,77,2.5,RU,2023-03-29 15:41:21
403,gashua,12.871,11.0482,35.57,7,97,4.29,NG,2023-03-29 15:41:21
404,wukari,7.85,9.7833,38.34,7,100,1.82,NG,2023-03-29 15:41:22
405,nema,57.5067,50.5011,-1.84,82,58,4.15,RU,2023-03-29 15:41:22
406,pecos,31.4229,-103.4932,14.58,30,0,0.0,US,2023-03-29 15:38:28
407,natal,-5.795,-35.2094,30.36,65,40,4.63,BR,2023-03-29 15:32:48
408,egvekinot,66.3167,-179.1667,-9.77,92,100,2.99,RU,2023-03-29 15:41:23
409,rawlins,41.7911,-107.2387,2.94,38,75,2.57,US,2023-03-29 15:41:23
410,fort frances,48.5999,-93.4003,-9.91,68,0,2.57,CA,2023-03-29 15:40:40
411,panaba,21.2833,-88.2667,30.87,40,1,3.35,MX,2023-03-29 15:41:24
412,longyan,25.1072,117.0225,16.51,99,100,0.19,CN,2023-03-29 15:41:24
413,jinka,5.65,36.65,20.24,74,65,0.63,ET,2023-03-29 15:41:25
414,pangai,-19.8,-174.35,26.06,76,84,3.44,TO,2023-03-29 15:41:26
415,konevo,62.1215,39.3192,1.63,91,100,4.75,RU,2023-03-29 15:41:26
416,cidreira,-30.1811,-50.2056,29.21,61,0,1.43,BR,2023-03-29 15:41:27
417,broken hill,-31.95,141.4333,14.9,51,11,6.76,AU,2023-03-29 15:41:27
418,kijang,35.2442,129.2139,9.85,66,20,1.61,KR,2023-03-29 15:41:27
419,dong xoai,11.5333,106.9167,25.74,66,46,1.39,VN,2023-03-29 15:41:27
420,skelleftea,64.7507,20.9528,-3.8,58,40,3.6,SE,2023-03-29 15:41:28
421,kitimat,54.0524,-128.6534,-1.79,70,96,0.97,CA,2023-03-29 15:41:29
422,grand forks,47.9417,-97.4337,-14.04,66,0,3.09,US,2023-03-29 15:41:29
423,sabla,12.7525,4.7077,38.6,7,41,3.76,NG,2023-03-29 15:41:29
424,black forest,39.0131,-104.7008,9.1,32,0,3.6,US,2023-03-29 15:41:30
425,niigata,37.9022,139.0236,3.29,54,0,1.67,JP,2023-03-29 15:41:30
426,kedrovyy,56.1667,91.8167,9.23,86,70,4.89,RU,2023-03-29 15:41:31
427,le port,-20.9373,55.2919,27.0,98,35,0.75,RE,2023-03-29 15:41:31
428,general roca,-39.0333,-67.5833,15.97,23,0,2.89,AR,2023-03-29 15:41:31
429,vicente guerrero,19.1194,-98.1708,18.66,49,3,1.99,MX,2023-03-29 15:41:32
430,chapleau,47.8405,-83.4034,-5.95,73,75,4.12,CA,2023-03-29 15:41:33
431,biak,-0.9131,122.8766,24.68,84,100,0.77,ID,2023-03-29 15:41:33
432,saint-gaudens,43.0833,0.6667,20.01,43,31,1.88,FR,2023-03-29 15:41:33
433,chengam,12.3,78.8,26.55,72,4,2.55,IN,2023-03-29 15:41:34
434,farsund,58.0948,6.8047,3.3,77,99,9.5,NO,2023-03-29 15:41:34
435,chifeng,42.2683,118.9636,10.38,19,0,2.97,CN,2023-03-29 15:41:35
436,grafton,42.207,-71.6856,9.17,42,0,2.57,US,2023-03-29 15:41:35
437,bambous virieux,-20.3428,57.7575,27.14,78,75,4.12,MU,2023-03-29 15:41:35
438,palmdale,34.5794,-118.1165,6.96,89,100,3.09,US,2023-03-29 15:41:35
439,la palma,33.8464,-118.0467,12.23,94,100,3.6,US,2023-03-29 15:41:36
440,tessalit,20.1986,1.0114,34.9,5,0,4.74,ML,2023-03-29 15:41:36
441,port keats,-14.25,129.55,26.59,73,93,0.99,AU,2023-03-29 15:41:36
442,ashqelon,31.6693,34.5715,16.94,59,34,8.01,IL,2023-03-29 15:41:36
443,vila do maio,15.1333,-23.2167,34.44,74,6,5.94,CV,2023-03-29 15:41:37
444,saint-joseph,-21.3667,55.6167,26.21,80,30,4.54,RE,2023-03-29 15:41:37
445,vao,-22.6667,167.4833,24.61,78,97,4.58,NC,2023-03-29 15:41:37
446,pirgos,35.1167,25.7178,13.68,37,15,9.34,GR,2023-03-29 15:41:38
447,ornskoldsvik,63.2909,18.7153,-2.47,50,0,3.6,SE,2023-03-29 15:41:38
448,jalu,29.0331,21.5482,20.81,21,0,6.28,LY,2023-03-29 15:41:38
449,prieska,-29.6641,22.7474,24.65,13,44,6.65,ZA,2023-03-29 15:41:38
450,guerrero negro,27.9769,-114.0611,15.67,62,0,6.26,MX,2023-03-29 15:41:39
451,eaton socon,52.2175,-0.2893,14.05,82,100,6.43,GB,2023-03-29 15:41:39
452,harper,4.375,-7.7169,29.34,69,26,4.71,LR,2023-03-29 15:41:40
453,oxford,51.7522,-1.256,13.43,94,100,6.69,GB,2023-03-29 15:40:08
454,paradise,36.0972,-115.1467,16.07,29,100,6.69,US,2023-03-29 15:40:13
455,dir,35.2058,71.8756,10.66,88,100,2.22,PK,2023-03-29 15:41:40
456,pangnirtung,66.1451,-65.7125,-17.0,71,20,0.0,CA,2023-03-29 15:41:41
457,springdale,36.1867,-94.1288,13.17,58,0,4.12,US,2023-03-29 15:38:17
458,sambava,-14.2667,50.1667,26.32,83,83,3.44,MG,2023-03-29 15:37:00
459,bousso,10.4795,16.7117,39.27,11,100,1.51,TD,2023-03-29 15:41:41
460,markova,48.6758,24.4138,1.58,41,5,3.86,UA,2023-03-29 15:41:42
461,manzhouli,49.6,117.4333,1.61,65,49,2.95,CN,2023-03-29 15:41:42
462,walvis bay,-22.9575,14.5053,19.78,62,17,8.55,,2023-03-29 15:41:42
463,youghal,51.95,-7.8506,12.56,100,100,8.92,IE,2023-03-29 15:41:42
464,ilulissat,69.2167,-51.1,-12.99,56,0,0.51,GL,2023-03-29 15:41:43
465,santa maria,-29.6842,-53.8069,32.61,49,20,4.63,BR,2023-03-29 15:41:43
466,zhigansk,66.7697,123.3711,-23.46,96,100,1.47,RU,2023-03-29 15:41:43
467,lulea,65.5842,22.1547,-4.96,80,40,5.66,SE,2023-03-29 15:41:43
468,lavrentiya,65.5833,-171.0,-7.48,95,100,6.34,RU,2023-03-29 15:41:44
469,balkanabat,39.5108,54.3671,23.28,29,0,2.77,TM,2023-03-29 15:41:44
470,los llanos de aridane,28.6585,-17.9182,27.86,12,0,5.66,ES,2023-03-29 15:41:44
471,mitu,1.1983,-70.1733,32.28,51,99,1.15,CO,2023-03-29 15:41:44
472,corinto,37.9407,22.9573,14.38,33,72,0.89,GR,2023-03-29 15:41:44
473,murud,18.3258,72.965,24.56,74,5,1.76,IN,2023-03-29 15:41:45
474,yar-sale,66.8333,70.8333,-15.76,91,42,8.61,RU,2023-03-29 15:41:45
475,nyagan,62.1406,65.3936,-6.52,90,95,4.7,RU,2023-03-29 15:41:45
476,wajir,1.7471,40.0573,32.98,49,20,2.06,KE,2023-03-29 15:41:46
477,redcar,54.6166,-1.06,14.18,62,100,4.02,GB,2023-03-29 15:41:46
478,terrace,54.5163,-128.6035,-2.05,86,20,0.0,CA,2023-03-29 15:41:07
479,ukholovo,53.7929,40.4892,7.26,74,100,4.75,RU,2023-03-29 15:41:46
480,baghdad,33.3406,44.4009,26.95,29,0,1.03,IQ,2023-03-29 15:41:20
481,aljezur,37.3191,-8.8033,20.81,52,89,1.76,PT,2023-03-29 15:41:47
482,vagur,61.4732,-6.8119,5.49,92,100,17.76,FO,2023-03-29 15:41:47
483,neuquen,-38.9516,-68.0591,16.94,31,0,3.6,AR,2023-03-29 15:41:00
484,nome,64.5011,-165.4064,-6.58,93,100,10.8,US,2023-03-29 15:39:58
485,imbituba,-28.24,-48.6703,29.36,63,3,4.88,BR,2023-03-29 15:41:48
486,marion,39.7684,-86.1555,9.76,63,75,5.14,US,2023-03-29 15:41:48
487,colares,38.7992,-9.4469,21.82,64,0,8.05,PT,2023-03-29 15:41:48
488,souillac,-20.5167,57.5167,27.21,78,75,4.12,MU,2023-03-29 15:41:48
489,chachapoyas,-6.2317,-77.869,17.29,68,100,1.53,PE,2023-03-29 15:41:49
490,nemuro,43.3236,145.575,1.75,89,18,3.14,JP,2023-03-29 15:41:49
491,wuwei,37.9281,102.6414,12.46,26,89,2.91,CN,2023-03-29 15:41:50
492,keffi,8.8486,7.8736,38.32,11,50,2.55,NG,2023-03-29 15:41:50
493,escanaba,45.7453,-87.0646,-2.8,51,75,6.69,US,2023-03-29 15:41:51
494,san ramon,37.7799,-121.978,8.23,92,100,2.06,US,2023-03-29 15:41:51
495,katherine,-14.4667,132.2667,26.18,69,88,0.0,AU,2023-03-29 15:41:51
496,sinnamary,5.3833,-52.95,26.59,81,68,5.18,GF,2023-03-29 15:41:52
497,peyima,8.7,-11.0333,23.99,89,95,2.51,SL,2023-03-29 15:41:52
498,jalingo,8.8833,11.3667,38.59,7,94,2.84,NG,2023-03-29 15:41:53
499,scottsbluff,41.8666,-103.6672,-4.38,86,100,3.6,US,2023-03-29 15:41:53
500,chanika,-5.4167,38.0167,22.55,91,98,1.75,TZ,2023-03-29 15:41:53
501,coahuayana,18.7333,-103.6833,30.05,29,66,1.28,MX,2023-03-29 15:41:53
502,petropavlovsk-kamchatskiy,53.0452,158.6483,-4.67,54,0,1.0,RU,2023-03-29 15:41:54
503,ipixuna,-1.7625,-48.8043,25.6,89,98,1.33,BR,2023-03-29 15:41:54
504,lazaro cardenas,17.9583,-102.2,29.63,37,65,0.39,MX,2023-03-29 15:41:54
505,nombre de dios,23.85,-104.2333,16.75,29,100,0.88,MX,2023-03-29 15:41:55
506,dillon,34.4166,-79.3712,13.47,64,60,5.95,US,2023-03-29 15:40:40
507,dandong,40.1292,124.3947,5.39,83,0,1.48,CN,2023-03-29 15:41:55
508,kholodnyy,62.7167,147.95,-20.36,100,91,0.52,RU,2023-03-29 15:41:55
509,izvor,42.2039,21.5783,9.24,42,89,4.21,MK,2023-03-29 15:41:55
510,bafq,31.6128,55.4107,22.77,22,2,3.17,IR,2023-03-29 15:41:56
511,lumsden,50.6501,-104.8678,-10.0,93,45,3.05,CA,2023-03-29 15:41:56
512,san severo,41.6897,15.376,16.78,65,92,4.2,IT,2023-03-29 15:41:56
513,gold coast,-28.0,153.4333,24.44,93,100,3.09,AU,2023-03-29 15:38:32
514,fitchburg,42.5834,-71.8023,8.83,36,0,4.12,US,2023-03-29 15:41:57
515,paita,-5.0892,-81.1144,26.73,75,100,2.07,PE,2023-03-29 15:41:57
516,creel,27.75,-107.6333,14.44,19,9,2.65,MX,2023-03-29 15:41:57
517,xiaolingwei,32.0333,118.85,13.99,72,99,3.84,CN,2023-03-29 15:41:58
518,chadiza,-14.0678,32.4392,19.38,91,76,2.28,ZM,2023-03-29 15:41:58
519,constitucion,-35.3333,-72.4167,18.2,48,2,5.93,CL,2023-03-29 15:41:33
520,oussouye,12.485,-16.5469,41.1,28,1,6.66,SN,2023-03-29 15:41:59
521,san quintin,30.4833,-115.95,14.55,66,0,4.89,MX,2023-03-29 15:41:59
522,ossora,59.2353,163.0719,-16.73,90,10,2.31,RU,2023-03-29 15:42:00
523,brasilia de minas,-16.2064,-44.4333,32.27,20,30,3.29,BR,2023-03-29 15:39:05
524,kargat,55.1956,80.2811,-1.05,84,100,6.59,RU,2023-03-29 15:42:00
525,pasewalk,53.5063,13.99,10.3,62,100,4.33,DE,2023-03-29 15:42:00
526,la romana,18.4273,-68.9728,29.2,70,40,5.14,DO,2023-03-29 15:42:00
527,magistralnyy,56.1725,107.4458,2.29,99,100,2.88,RU,2023-03-29 15:42:01
528,yeppoon,-23.1333,150.7333,22.88,86,6,2.17,AU,2023-03-29 15:42:01
529,camacha,33.0833,-16.3333,22.68,60,20,3.09,PT,2023-03-29 15:42:01
530,sooke,48.3746,-123.7276,10.32,48,4,2.06,CA,2023-03-29 15:37:52
531,tiarei,-17.5333,-149.3333,25.56,78,50,3.38,PF,2023-03-29 15:42:02
532,nizwa,22.9333,57.5333,25.22,24,0,3.09,OM,2023-03-29 15:42:02
533,bosaso,11.2842,49.1816,28.47,72,31,0.92,SO,2023-03-29 15:42:02
534,alappuzha,9.49,76.3264,27.83,78,67,4.29,IN,2023-03-29 15:42:03
535,jacareacanga,-6.2222,-57.7528,30.62,66,99,1.18,BR,2023-03-29 15:42:03
536,comodoro rivadavia,-45.8667,-67.5,10.92,35,20,11.32,AR,2023-03-29 15:42:04
537,hammerfest,70.6634,23.6821,-3.75,86,75,5.14,NO,2023-03-29 15:42:04
538,ondangwa,-17.9167,15.95,29.29,38,83,2.71,,2023-03-29 15:42:05
539,grand gaube,-20.0064,57.6608,27.22,73,71,2.24,MU,2023-03-29 15:42:05
540,christchurch,-43.5333,172.6333,8.86,75,100,7.2,NZ,2023-03-29 15:41:29
541,fort nelson,58.8053,-122.7002,-0.23,94,100,3.13,CA,2023-03-29 15:42:05
542,campo formoso,-10.5075,-40.3214,30.85,37,47,4.2,BR,2023-03-29 15:37:52
543,palmer,42.1584,-72.3287,10.1,40,20,3.6,US,2023-03-29 15:42:06
544,pastavy,55.1168,26.8326,1.37,53,99,6.3,BY,2023-03-29 15:42:07
545,sonoita,31.85,-112.8333,19.1,13,1,3.06,MX,2023-03-29 15:42:07
546,utena,55.5,25.6,0.9,53,18,5.31,LT,2023-03-29 15:42:08
547,athabasca,54.7169,-113.2854,-3.77,80,100,1.08,CA,2023-03-29 15:42:08
548,zuenoula,7.4292,-6.0431,35.53,35,34,3.34,CI,2023-03-29 15:42:08
549,mago,53.2514,140.1822,-3.2,93,89,1.51,RU,2023-03-29 15:42:09
550,sawtell,-30.3833,153.1,22.01,83,89,3.09,AU,2023-03-29 15:42:10
551,zemio,5.0314,25.1361,30.32,43,57,1.62,CF,2023-03-29 15:42:10
552,xichang,27.8964,102.2634,10.61,83,34,2.0,CN,2023-03-29 15:42:10
553,muroto,33.2833,134.15,14.36,61,82,2.71,JP,2023-03-29 15:42:10
554,aksu,41.1231,80.2644,16.45,14,93,3.42,CN,2023-03-29 15:42:11
555,marawi,7.9986,124.2928,20.47,95,100,0.12,PH,2023-03-29 15:42:11
556,luau,-10.7073,22.2247,22.73,87,69,0.99,AO,2023-03-29 15:42:12
557,petrolina,-9.3986,-40.5008,31.03,48,40,4.12,BR,2023-03-29 15:39:33
558,mandalgovi,45.7625,106.2708,4.83,24,0,1.81,MN,2023-03-29 15:42:12
559,bichura,50.5881,107.6022,2.2,78,28,1.98,RU,2023-03-29 15:42:12
560,dalbandin,28.8947,64.4101,19.41,45,63,3.5,PK,2023-03-29 15:42:13
561,mana,5.6592,-53.7767,28.08,68,42,5.2,GF,2023-03-29 15:42:13
562,todos santos,23.45,-110.2167,19.81,51,100,1.91,MX,2023-03-29 15:40:31
563,tolyatti,53.5303,49.3461,5.06,85,85,5.74,RU,2023-03-29 15:42:14
564,kaabong,3.4836,34.1492,22.18,60,80,3.18,UG,2023-03-29 15:42:15
565,oktyabrskoye,43.0645,44.7417,10.08,93,100,5.0,RU,2023-03-29 15:42:15
566,safford,32.834,-109.7076,12.51,26,0,5.14,US,2023-03-29 15:42:16
567,tura,25.5198,90.2201,21.27,72,3,2.32,IN,2023-03-29 15:36:01
568,orlik,52.5178,99.825,-5.55,87,11,1.62,RU,2023-03-29 15:42:16
569,methoni,36.8197,21.7049,15.12,49,24,7.95,GR,2023-03-29 15:42:17
570,palu,-0.8917,119.8707,24.28,97,92,0.77,ID,2023-03-29 15:42:17
571,nedjo,9.5046,35.5019,23.42,23,84,1.59,ET,2023-03-29 15:42:17
572,dallas,32.7668,-96.7836,14.41,64,75,3.6,US,2023-03-29 15:39:01
